[
  {"name":"Arena Park Play Area","lat":50.739493,"lng":-3.490331,"type":"Outdoor","surface":"OK","hoops":2,"nets":"None","condition":"OK","parking":"Unknown","lights":"Unknown","water":"Unknown","toilets":"Unknown","description":"","photos":[]},
  {"name":"Arena Park Play Area (half court)","lat":50.739386,"lng":-3.49079,"type":"Outdoor","surface":"OK","hoops":1,"nets":"None","condition":"OK","parking":"Unknown","lights":"Unknown","water":"Unknown","toilets":"Unknown","description":"","photos":[]},
  {"name":"Pinhoe Station Road Playing Fields","lat":50.737465,"lng":-3.472552,"type":"Outdoor","surface":"OK","hoops":2,"nets":"None","condition":"OK","parking":"Unknown","lights":"Unknown","water":"Unknown","toilets":"Unknown","description":"","photos":[]},
  {"name":"King's Heath Play Area","lat":50.713717,"lng":-3.47745,"type":"Outdoor","surface":"Good","hoops":2,"nets":"None","condition":"OK","parking":"Unknown","lights":"Unknown","water":"Unknown","toilets":"Unknown","description":"","photos":[]},
  {"name":"Summerway Park","lat":50.734116,"lng":-3.488137,"type":"Outdoor","surface":"Good","hoops":2,"nets":"None","condition":"Good","parking":"Unknown","lights":"Unknown","water":"Unknown","toilets":"Unknown","description":"","photos":[]},
  {"name":"Mushroom Play Park","lat":50.714493,"lng":-3.508491,"type":"Outdoor","surface":"Good","hoops":2,"nets":"None","condition":"Good","parking":"Unknown","lights":"Unknown","water":"Unknown","toilets":"Unknown","description":"","photos":[]},
  {"name":"Heavitree Pleasure Ground","lat":50.722234,"lng":-3.500923,"type":"Outdoor","surface":"TBC","hoops":2,"nets":"Chains","condition":"OK","parking":"Unknown","lights":"Unknown","water":"Unknown","toilets":"Unknown","description":"Hoops too high","photos":[]},
  {"name":"Strawberry Fields MUGA","lat":50.73379,"lng":-3.451607,"type":"Outdoor","surface":"Good","hoops":2,"nets":"None","condition":"Good","parking":"Unknown","lights":"Unknown","water":"Unknown","toilets":"Unknown","description":"No nets — static ball-return system.","photos":[]},
  {"name":"Clyst St Mary Village Hall","lat":50.710147,"lng":-3.450763,"type":"Outdoor","surface":"Good","hoops":2,"nets":"2","condition":"Good","parking":"Unknown","lights":"Unknown","water":"Unknown","toilets":"Unknown","description":"","photos":[]},
  {"name":"Lakeside Avenue","lat":50.69595084,"lng":-3.488860955,"type":"Outdoor","surface":"OK","hoops":2,"nets":"None","condition":"OK","parking":"Unknown","lights":"Unknown","water":"Unknown","toilets":"Unknown","description":"","photos":[]},
  {"name":"Lakeside Avenue (half court)","lat":50.695548,"lng":-3.488012,"type":"Outdoor","surface":"OK","hoops":1,"nets":"1","condition":"OK","parking":"Unknown","lights":"Unknown","water":"Unknown","toilets":"Unknown","description":"","photos":[]},
  {"name":"Wonford Playing Fields (half court)","lat":50.711424,"lng":-3.498444,"type":"Outdoor","surface":"OK","hoops":1,"nets":"None","condition":"Poor","parking":"Unknown","lights":"Unknown","water":"Unknown","toilets":"Unknown","description":"","photos":[]},
  {"name":"Topsham Recreational Ground (half court)","lat":50.684865,"lng":-3.469736,"type":"Outdoor","surface":"OK","hoops":1,"nets":"1","condition":"OK","parking":"Unknown","lights":"Unknown","water":"Unknown","toilets":"Unknown","description":"","photos":[]},
  {"name":"Hamlin Lane Playing Fields (half court)","lat":50.727651,"lng":-3.495722,"type":"Outdoor","surface":"OK","hoops":1,"nets":"1","condition":"OK","parking":"Unknown","lights":"Unknown","water":"Unknown","toilets":"Unknown","description":"","photos":[]},
  {"name":"Mulberry Close Play Area (half court)","lat":50.726809,"lng":-3.489385,"type":"Outdoor","surface":"Poor","hoops":1,"nets":"None","condition":"Poor","parking":"Unknown","lights":"Unknown","water":"Unknown","toilets":"Unknown","description":"Court on a steep slope.","photos":[]},
  {"name":"Flowerpot Playing Fields (half court)","lat":50.722251,"lng":-3.541655,"type":"Outdoor","surface":"OK","hoops":1,"nets":"1","condition":"OK","parking":"Unknown","lights":"Unknown","water":"Unknown","toilets":"Unknown","description":"","photos":[]},
  {"name":"Cowick Barton Playing Fields (half court)","lat":50.710819,"lng":-3.542988,"type":"Outdoor","surface":"Poor","hoops":1,"nets":"1","condition":"OK","parking":"Unknown","lights":"Unknown","water":"Unknown","toilets":"Unknown","description":"","photos":[]},
  {"name":"Horseguards Play Area (half court)","lat":50.732405,"lng":-3.530055,"type":"Outdoor","surface":"OK","hoops":1,"nets":"1","condition":"OK","parking":"Unknown","lights":"Unknown","water":"Unknown","toilets":"Unknown","description":"","photos":[]},
  {"name":"Belmont Park (half court)","lat":50.728296,"lng":-3.517351,"type":"Outdoor","surface":"Poor","hoops":1,"nets":"Chain","condition":"OK","parking":"Unknown","lights":"Unknown","water":"Unknown","toilets":"Unknown","description":"","photos":[]},
  {"name":"Exwick Kinnerton Way MUGA","lat":50.731528,"lng":-3.557089,"type":"Outdoor","surface":"Good","hoops":2,"nets":"None","condition":"OK","parking":"Unknown","lights":"Unknown","water":"Unknown","toilets":"Unknown","description":"Court on a slight slope.","photos":[]},
  {"name":"Exwick Cemetery Field Play Area (half court)","lat":50.725193,"lng":-3.555573,"type":"Outdoor","surface":"Poor","hoops":1,"nets":"None","condition":"Poor","parking":"Unknown","lights":"Unknown","water":"Unknown","toilets":"Unknown","description":"Hoop too low; potholes throughout.","photos":[]},
  {"name":"Exminster Deepway Park","lat":50.677443,"lng":-3.498187,"type":"Outdoor","surface":"Good","hoops":2,"nets":"None","condition":"OK","parking":"Unknown","lights":"Unknown","water":"Unknown","toilets":"Unknown","description":"No nets — static ball-return system.","photos":[]},
  {"name":"Merrivale Road Play Area","lat":50.717451,"lng":-3.550358,"type":"Outdoor","surface":"OK","hoops":2,"nets":"None","condition":"OK","parking":"Unknown","lights":"Unknown","water":"Unknown","toilets":"Unknown","description":"","photos":[]}
]
